City_ID,City,Cloudiness,Country,Date,Humidity,Lat,Lng,Max Temp,Wind Speed
0,katsuura,75,JP,1563512783,88,33.93,134.5,77.0,9.17
1,byron bay,0,AU,1563513198,56,-28.65,153.62,71.6,13.87
2,upernavik,100,GL,1563512950,95,72.79,-56.15,45.47,13.35
3,hilo,90,US,1563512953,88,19.71,-155.08,75.2,13.98
4,totskoye,11,RU,1563513198,63,52.53,52.75,77.33,8.1
5,san patricio,97,PY,1563513030,96,-26.98,-56.83,58.25,1.63
6,antofagasta,90,CL,1563512992,76,-23.65,-70.4,55.4,9.17
7,longyearbyen,75,NO,1563512967,70,78.22,15.63,44.6,14.99
8,ushuaia,90,AR,1563512649,95,-54.81,-68.31,35.6,9.17
9,athy,75,IE,1563513199,93,52.99,-6.98,57.99,4.7
10,mehamn,0,NO,1563512998,67,71.03,27.85,59.0,6.93
11,flateby,75,NO,1563513199,93,59.83,11.15,61.0,2.24
12,bay-khaak,65,RU,1563513199,41,51.16,94.47,77.87,7.61
13,hithadhoo,90,MV,1563512711,80,-0.6,73.08,81.47,14.79
14,nouadhibou,0,MR,1563513114,82,20.93,-17.03,68.0,19.46
15,lorengau,13,PG,1563512949,75,-2.02,147.27,83.99,11.86
16,myitkyina,78,MM,1563513200,84,25.38,97.4,83.45,2.82
17,east london,0,ZA,1563512956,42,-33.02,27.91,66.2,10.29
18,sao filipe,89,CV,1563512841,85,14.9,-24.5,74.63,11.45
19,vila franca do campo,75,PT,1563513068,94,37.72,-25.43,69.8,10.29
20,mackay,75,CA,1563512973,71,53.65,-115.58,55.4,13.87
21,iqaluit,90,CA,1563513002,81,63.75,-68.52,46.4,3.36
22,hermanus,69,ZA,1563512691,95,-34.42,19.24,52.0,11.99
23,lebu,75,ET,1563512672,93,8.96,38.73,53.6,1.12
24,rikitea,0,PF,1563512944,70,-23.12,-134.97,68.51,24.2
25,zhaotong,100,CN,1563513201,79,27.34,103.71,71.03,4.25
26,tasiilaq,19,GL,1563512944,93,65.61,-37.64,41.0,3.36
27,punta arenas,40,CL,1563512953,86,-53.16,-70.91,33.8,9.17
28,cidreira,14,BR,1563512956,96,-30.17,-50.22,57.17,5.66
29,karratha,83,AU,1563512710,13,-20.74,116.85,84.89,11.39
30,jamestown,0,AU,1563512753,43,-33.21,138.6,60.05,8.37
31,saldanha,0,PT,1563512974,66,41.42,-6.55,65.63,3.8
32,pangkalanbuun,86,ID,1563513201,49,-2.68,111.62,91.91,3.85
33,itarema,42,BR,1563513202,95,-2.92,-39.92,70.49,4.47
34,yandyki,63,RU,1563513202,30,45.77,47.13,86.69,10.98
35,conceicao do araguaia,20,BR,1563513202,56,-8.26,-49.26,70.13,1.01
36,tuktoyaktuk,5,CA,1563512962,82,69.44,-133.03,57.2,9.17
37,yellowknife,20,CA,1563512971,45,62.45,-114.38,64.4,10.29
38,kapaa,20,US,1563512682,69,22.08,-159.32,86.0,14.99
39,cape town,40,ZA,1563512902,87,-33.93,18.42,55.0,6.93
40,hobart,20,AU,1563512841,44,-42.88,147.33,57.99,18.34
41,hami,22,CN,1563512979,13,42.84,93.51,93.17,7.09
42,hambantota,75,LK,1563512950,70,6.12,81.12,86.0,20.8
43,verkh-usugli,81,RU,1563513203,43,52.7,115.17,80.21,2.91
44,natal,20,BR,1563513034,78,-5.81,-35.21,73.4,4.7
45,powell river,75,CA,1563513037,93,49.84,-124.52,57.99,3.36
46,atherton,0,AU,1563513203,44,-17.27,145.48,75.2,17.22
47,talnakh,0,RU,1563512968,35,69.49,88.39,73.4,20.13
48,tuatapere,98,NZ,1563512947,95,-46.13,167.69,48.0,3.0
49,inhambane,20,MZ,1563513203,100,-23.87,35.38,60.8,10.31
50,albany,90,US,1563512723,78,42.65,-73.75,72.0,4.7
51,bredasdorp,52,ZA,1563512970,76,-34.53,20.04,53.6,18.34
52,severo-kurilsk,83,RU,1563512948,93,50.68,156.12,49.97,4.97
53,santa luzia,0,BR,1563513070,71,-19.77,-43.85,55.4,4.7
54,alofi,56,NU,1563512968,88,-19.06,-169.92,75.2,9.17
55,san cristobal,36,HN,1563512962,90,14.68,-86.92,64.01,4.43
56,repcelak,0,HU,1563513204,87,47.42,17.02,60.8,2.24
57,chernyshevskiy,47,RU,1563513129,37,63.01,112.47,62.57,11.81
58,zhuhai,75,CN,1563513204,88,40.71,112.04,69.8,6.71
59,port blair,40,IN,1563513205,74,11.67,92.75,87.8,9.17
60,mataura,99,NZ,1563512945,95,-46.19,168.86,48.0,3.0
61,iwanai,93,JP,1563513205,85,42.97,140.51,73.01,1.07
62,butaritari,26,KI,1563512702,66,3.07,172.79,84.53,4.72
63,havre-saint-pierre,75,CA,1563513017,93,50.23,-63.6,51.8,4.52
64,tahoua,0,NE,1563513205,65,14.89,5.26,80.6,9.17
65,altar,14,MX,1563513205,29,30.72,-111.84,91.0,1.99
66,alta floresta,0,BR,1563513015,53,-9.87,-56.08,68.51,1.77
67,esperance,0,AU,1563512672,30,-33.86,121.89,69.8,24.16
68,puerto leguizamo,3,CO,1563513206,98,-0.19,-74.78,69.23,1.88
69,zabaykalsk,65,CN,1563513055,34,49.64,117.33,89.21,9.62
70,itoman,75,JP,1563513206,83,26.12,127.67,86.0,20.8
71,ostersund,5,SE,1563513206,82,63.18,14.64,55.4,10.29
72,dikson,68,RU,1563512977,83,73.51,80.55,42.41,4.25
73,saint george,0,GR,1563512993,88,39.45,22.34,75.99,2.8
74,port alfred,19,ZA,1563512957,85,-33.59,26.89,64.0,7.0
75,mosquera,75,CO,1563512986,76,4.71,-74.23,55.4,3.36
76,high level,90,CA,1563512990,87,58.52,-117.13,59.0,13.87
77,haines junction,91,CA,1563512955,89,60.75,-137.51,53.21,4.81
78,kodiak,1,US,1563512747,33,39.95,-94.76,87.8,16.11
79,dhidhdhoo,100,MV,1563513207,74,6.88,73.1,83.99,24.56
80,rio claro,69,BR,1563513207,85,-22.41,-47.56,52.67,3.91
81,carnarvon,100,ZA,1563512944,76,-30.97,22.13,50.15,20.54
82,san carlos de bariloche,40,AR,1563513208,86,-41.13,-71.31,37.4,28.86
83,hualmay,96,PE,1563513047,86,-11.1,-77.61,60.95,13.85
84,qaanaaq,95,GL,1563512951,83,77.48,-69.36,41.15,2.71
85,seoul,75,KR,1563513075,44,37.57,126.98,93.2,6.93
86,strathaven,56,GB,1563513208,87,55.68,-4.07,57.99,8.05
87,colomi,40,BO,1563513208,46,-17.34,-65.87,53.6,6.93
88,kuching,75,MY,1563513208,62,1.56,110.34,89.6,3.36
89,villamontes,56,BO,1563513209,61,-21.26,-63.47,67.43,8.03
90,villablino,0,ES,1563513209,87,42.94,-6.32,57.99,1.12
91,barrow,0,AR,1563512726,56,-38.31,-60.23,40.07,8.43
92,rocha,100,UY,1563512942,95,-34.48,-54.34,53.21,2.13
93,mar del plata,67,AR,1563512771,65,-46.43,-67.52,40.61,18.28
94,camacha,40,PT,1563513111,73,33.08,-16.33,69.8,16.11
95,nishihara,75,JP,1563513094,70,35.74,139.53,89.01,14.99
96,hutchinson,1,US,1563513209,62,38.06,-97.93,87.01,18.34
97,pevek,21,RU,1563512701,91,69.7,170.27,33.41,3.0
98,la ronge,75,CA,1563513050,82,55.1,-105.3,62.6,5.82
99,lagoa,0,PT,1563512953,68,37.14,-8.45,71.6,4.7
100,virginia beach,75,US,1563513075,78,36.85,-75.98,82.99,5.82
101,leningradskiy,37,RU,1563513026,85,69.38,178.42,33.95,2.62
102,nanortalik,21,GL,1563512963,90,60.14,-45.24,41.33,2.06
103,shieli,0,KZ,1563513097,14,44.18,66.74,101.27,17.96
104,saint-philippe,1,CA,1563512971,73,45.36,-73.48,77.0,6.93
105,airai,12,TL,1563512957,56,-8.93,125.41,82.37,4.76
106,bluff,0,AU,1563512951,34,-23.58,149.07,66.53,10.36
107,new norfolk,20,AU,1563512978,44,-42.78,147.06,57.99,18.34
108,khatanga,55,RU,1563512963,31,71.98,102.47,70.31,9.28
109,port elizabeth,1,US,1563512960,100,39.31,-74.98,79.0,4.7
110,brae,20,GB,1563513036,93,60.4,-1.35,55.4,9.17
111,altagracia de orituco,100,VE,1563513211,96,9.86,-66.38,66.89,1.21
112,buala,92,SB,1563513211,80,-8.15,159.59,81.47,9.46
113,hensies,20,BE,1563513211,82,50.43,3.68,62.01,8.05
114,sitka,39,US,1563512963,61,37.17,-99.65,84.0,10.0
115,chokurdakh,100,RU,1563512678,74,70.62,147.9,42.41,10.42
116,ahipara,100,NZ,1563512740,71,-35.17,173.16,58.79,18.01
117,jatai,71,IN,1563513212,49,28.97,76.18,93.89,7.49
118,caravelas,21,BR,1563512954,75,-17.73,-39.27,69.77,9.15
119,mayo,90,CA,1563513085,36,63.59,-135.9,77.0,3.36
120,norman wells,20,CA,1563512677,46,65.28,-126.83,73.4,6.93
121,iztapa,100,GT,1563513212,91,13.93,-90.71,75.71,5.53
122,iwaki,75,JP,1563513212,78,37.05,140.89,78.8,16.11
123,burnie,37,AU,1563512906,50,-41.05,145.91,55.99,17.0
124,nikki,100,BJ,1563513213,94,9.94,3.21,71.39,6.44
125,kruisfontein,66,ZA,1563513022,84,-34.0,24.73,52.67,33.73
126,kaeo,100,NZ,1563512979,88,-35.1,173.78,55.0,3.0
127,fethiye,0,TR,1563513213,83,36.62,29.12,75.2,1.12
128,touros,20,BR,1563513050,94,-5.2,-35.46,69.8,5.82
129,souillac,90,FR,1563512955,88,45.6,-0.6,64.99,4.7
130,roseburg,1,US,1563513213,81,43.22,-123.34,63.0,11.41
131,kingman,1,US,1563513165,17,35.19,-114.05,102.2,8.05
132,kavieng,2,PG,1563513017,75,-2.57,150.8,83.99,14.65
133,wajir,40,KE,1563513213,83,1.75,40.07,73.4,9.17
134,presidencia roque saenz pena,68,AR,1563512927,97,-26.79,-60.44,57.89,3.94
135,clyde river,90,CA,1563513036,100,70.47,-68.59,35.6,4.7
136,cabo san lucas,5,MX,1563512823,61,22.89,-109.91,87.8,13.87
137,busselton,62,AU,1563512959,91,-33.64,115.35,60.01,4.0
138,faanui,36,PF,1563513005,64,-16.48,-151.75,75.89,15.64
139,marawi,63,PH,1563512953,73,8.0,124.29,84.99,7.0
140,syracuse,1,US,1563513032,100,43.05,-76.15,73.99,7.67
141,krosno,0,PL,1563513214,82,49.69,21.77,64.0,1.12
142,castro,90,CL,1563512966,100,-42.48,-73.76,48.2,27.51
143,haimen,55,CN,1563513215,77,31.87,121.18,90.0,3.0
144,dingle,80,PH,1563512795,73,11.0,122.67,85.97,15.66
145,juba,100,EE,1563513215,93,57.82,26.93,57.99,9.17
146,idrinskoye,49,RU,1563513215,63,54.37,92.14,71.75,5.37
147,rawson,100,AR,1563512981,50,-43.3,-65.11,46.73,28.25
148,luderitz,0,NA,1563513105,66,-26.65,15.16,53.6,4.7
149,tiarei,20,PF,1563512974,57,-17.53,-149.33,75.2,4.7
150,thompson,90,CA,1563512991,77,55.74,-97.86,64.4,2.24
151,vogar,40,IS,1563513215,87,63.98,-22.39,54.0,16.11
152,broome,0,GB,1563513021,93,52.47,1.45,55.99,4.7
153,dese,0,IT,1563513216,77,45.53,12.3,69.01,2.24
154,mantua,0,IT,1563513216,82,45.16,10.79,71.01,5.82
155,belyy yar,0,RU,1563513216,50,53.6,91.39,77.0,8.95
156,avarua,21,CK,1563512968,88,-21.21,-159.78,73.4,4.7
157,hohhot,75,CN,1563513216,88,40.81,111.65,69.8,6.71
158,vardo,1,US,1563512954,88,39.62,-77.74,77.0,2.8
159,vaini,75,IN,1563512699,78,15.34,74.49,77.0,3.36
160,dongsheng,13,CN,1563513217,67,29.72,112.52,89.03,9.35
161,banjarmasin,97,ID,1563513072,72,-3.32,114.59,84.53,4.94
162,hasaki,75,JP,1563512723,66,35.73,140.83,91.0,10.29
163,roald,90,NO,1563513006,93,62.58,6.12,59.0,4.7
164,shuangyashan,2,CN,1563513217,55,46.64,131.15,82.37,3.49
165,preston,40,GB,1563513179,93,53.76,-2.71,59.0,6.93
166,almeirim,35,BR,1563513218,97,-1.53,-52.58,71.21,2.46
167,xai-xai,0,MZ,1563513121,51,-25.04,33.64,63.83,12.15
168,pangody,13,RU,1563513035,36,65.85,74.49,88.49,14.9
169,salalah,75,OM,1563512968,88,17.01,54.1,80.6,2.24
170,ugoofaaru,100,MV,1563513218,76,5.67,73.0,83.99,21.9
171,krupina,0,SK,1563513218,93,48.35,19.07,55.4,1.12
172,walvis bay,0,NA,1563513044,87,-22.95,14.51,55.4,8.34
173,bondowoso,62,ID,1563513219,69,-7.91,113.82,75.89,3.74
174,anadyr,75,RU,1563512964,68,64.73,177.51,64.4,6.71
175,victoria,75,BN,1563512954,62,5.28,115.24,91.4,4.7
176,torbay,40,CA,1563512975,67,47.66,-52.73,57.99,14.99
177,grand gaube,75,MU,1563512994,69,-20.01,57.66,73.4,13.87
178,high prairie,100,CA,1563513176,98,55.43,-116.48,50.69,10.94
179,snasa,0,NO,1563513219,72,64.25,12.38,64.4,13.87
180,primorsk,98,RU,1563513219,93,60.37,28.62,57.99,8.99
181,puerto escondido,75,MX,1563513219,88,15.86,-97.07,77.0,5.82
182,port hawkesbury,1,CA,1563513220,62,45.62,-61.36,63.0,4.7
183,sao joao da barra,8,BR,1563513028,88,-21.64,-41.05,55.73,0.85
184,anzio,0,IT,1563513220,88,41.45,12.63,72.0,3.36
185,chuy,100,UY,1563513031,94,-33.69,-53.46,52.85,3.09
186,port lincoln,0,AU,1563513220,60,-34.72,135.86,58.25,16.78
187,labuhan,97,ID,1563512784,72,-2.54,115.51,83.27,1.92
188,aljezur,0,PT,1563513221,72,37.31,-8.8,69.01,11.12
189,ancud,90,CL,1563512983,100,-41.87,-73.83,48.2,27.51
190,pisco,75,PE,1563512976,87,-13.71,-76.2,57.2,4.7
191,atuona,1,PF,1563512952,67,-9.8,-139.03,80.03,4.14
192,luige,0,EE,1563513221,72,59.33,24.78,66.99,6.93
193,isiro,15,CD,1563513221,94,2.77,27.62,71.03,1.54
194,youghal,75,IE,1563513221,100,51.95,-7.85,60.01,2.24
195,beringovskiy,95,RU,1563512969,80,63.05,179.32,58.25,2.1
196,bilma,64,NE,1563513123,21,18.69,12.92,92.27,7.7
197,japura,88,ID,1563513222,45,-0.42,102.29,89.75,5.41
198,homer,1,US,1563513222,68,59.64,-151.54,66.99,8.05
199,bambous virieux,75,MU,1563512962,69,-20.34,57.76,73.4,13.87
200,provideniya,75,RU,1563512959,87,64.42,-173.23,59.0,8.95
201,george town,75,MY,1563513222,70,5.42,100.33,87.8,11.41
202,saint anthony,1,US,1563513031,43,43.97,-111.68,73.4,12.75
203,clive,1,US,1563513222,74,41.61,-93.78,86.0,11.41
204,samana,10,EC,1563513223,99,0.12,-76.97,66.53,1.34
205,great malvern,20,GB,1563513223,93,52.11,-2.33,60.01,7.83
206,chibombo,0,ZM,1563513223,62,-14.68,28.09,58.07,4.23
207,lanzhou,40,CN,1563513223,77,36.06,103.82,64.4,8.95
208,staritsa,45,RU,1563513223,83,56.51,34.93,60.23,1.07
209,porto empedocle,14,IT,1563513224,90,37.29,13.53,69.01,2.64
210,buraydah,0,SA,1563512948,35,26.33,43.97,84.2,6.93
211,diebougou,100,BF,1563513224,83,10.97,-3.25,74.99,4.92
212,payo,65,ID,1563513224,49,-3.75,103.64,83.45,6.8
213,mahebourg,75,MU,1563512911,69,-20.41,57.7,73.99,13.87
214,letnyaya stavka,94,RU,1563513224,61,45.43,43.44,73.73,7.16
215,baiyin,40,CN,1563513225,77,36.55,104.13,64.4,8.95
216,hammerfest,0,NO,1563513225,59,70.66,23.68,62.6,13.87
217,salvador,90,BR,1563513108,69,-12.98,-38.48,77.0,14.99
218,malaut,18,IN,1563513225,52,30.22,74.48,94.25,8.59
219,pangnirtung,76,CA,1563513065,61,66.15,-65.72,48.35,5.41
220,grindavik,40,IS,1563513010,87,63.84,-22.43,54.0,16.11
221,puerto ayora,23,EC,1563512957,89,-0.74,-90.35,70.0,3.0
222,batagay-alyta,81,RU,1563512997,75,67.8,130.41,40.43,15.57
223,los llanos de aridane,40,ES,1563512970,56,28.66,-17.92,71.6,14.99
224,simbahan,0,PH,1563513226,80,6.3,120.58,82.55,13.11
225,pizarro,75,CO,1563512984,82,4.95,-77.37,80.39,5.1
226,bethel,90,US,1563512715,77,60.79,-161.76,60.8,10.29
227,mirzapur,20,IN,1563513226,63,25.15,82.57,93.2,4.7
228,ouesso,56,CG,1563513226,94,1.61,16.05,71.03,2.39
229,nikolskoye,90,RU,1563512682,93,59.7,30.79,61.0,8.95
230,basco,1,US,1563513018,83,40.33,-91.2,84.99,9.17
231,vestmanna,78,FO,1563513227,100,62.16,-7.17,51.8,12.75
232,merauke,87,ID,1563513227,84,-8.49,140.4,77.33,22.73
233,yelkhovka,0,RU,1563513227,73,53.87,50.29,71.6,8.95
234,richards bay,10,ZA,1563512999,33,-28.77,32.06,67.25,5.19
235,zonguldak,0,TR,1563513227,67,41.25,31.83,72.83,6.58
236,miguel auza,94,MX,1563513228,49,24.29,-103.45,71.75,5.57
237,dalvik,88,SE,1563513228,87,57.79,14.13,55.0,3.15
238,arlit,61,NE,1563512802,21,18.74,7.39,90.83,12.17
239,voloshka,94,RU,1563513228,66,61.33,40.09,63.47,7.72
240,vao,51,EE,1563513008,81,59.1,26.19,60.77,9.46
241,rockland,40,CA,1563513228,77,45.55,-75.29,72.0,3.36
242,tura,0,RU,1563512950,33,64.27,100.22,65.63,15.43
243,jadu,0,LY,1563513229,45,31.95,12.03,76.25,7.85
244,mount gambier,90,AU,1563512973,71,-37.83,140.78,53.6,10.29
245,gananoque,1,CA,1563513229,94,44.33,-76.16,72.0,5.61
246,antigonish,1,CA,1563513229,62,45.62,-61.99,63.0,4.7
247,pucallpa,40,PE,1563513229,94,-8.38,-74.54,73.4,3.36
248,talara,15,PE,1563513196,88,-4.58,-81.27,63.47,17.65
249,vanimo,1,PG,1563512987,76,-2.67,141.3,82.19,8.3
250,samarai,74,PG,1563512956,86,-10.62,150.67,73.19,6.93
251,rio gallegos,40,AR,1563512914,72,-51.62,-69.22,35.6,13.87
252,manama,0,AE,1563513230,59,25.33,56.02,93.2,14.99
253,clermont,90,FR,1563513230,93,49.38,2.41,64.0,2.24
254,tiksi,97,RU,1563512900,74,71.64,128.87,41.69,11.32
255,tonekabon,40,IR,1563513231,69,36.82,50.88,82.4,4.7
256,trelew,100,AR,1563513231,50,-43.25,-65.31,46.73,28.25
257,reinheim,99,DE,1563513231,93,49.83,8.83,69.01,2.24
258,weyburn,4,CA,1563513231,82,49.67,-103.85,60.01,1.01
259,santiago del estero,2,AR,1563513231,63,-27.8,-64.26,52.67,4.23
260,egvekinot,99,RU,1563512974,92,66.32,-179.17,51.05,4.43
261,kirakira,4,SB,1563513056,77,-10.46,161.92,82.19,8.99
262,presidente epitacio,78,BR,1563513009,80,-21.76,-52.12,59.15,5.17
263,sovetskiy,71,RU,1563513232,88,56.76,48.47,67.25,3.22
264,lompoc,90,US,1563512972,87,34.64,-120.46,61.0,5.82
265,lithakia,0,GR,1563513232,88,37.72,20.83,72.0,4.94
266,mogadishu,75,SO,1563513021,73,2.04,45.34,77.0,17.22
267,bathsheba,20,BB,1563512925,78,13.22,-59.52,82.4,18.34
268,ponta do sol,67,BR,1563512995,87,-20.63,-46.0,50.33,5.39
269,hokitika,100,NZ,1563513232,88,-42.72,170.96,50.69,5.53
270,xacmaz,0,AZ,1563513233,32,41.46,48.81,85.97,10.38
271,erenhot,100,CN,1563513233,66,43.65,111.97,71.75,9.86
272,yulara,0,AU,1563512967,17,-25.24,130.99,73.4,9.17
273,hay river,20,CA,1563513233,71,60.82,-115.79,57.2,4.7
274,banmankhi,6,IN,1563513233,51,25.89,87.19,95.87,7.05
275,tautira,20,PF,1563512982,57,-17.73,-149.15,75.2,4.7
276,namtsy,40,RU,1563513234,54,62.72,129.66,57.2,11.18
277,borova,0,UA,1563513234,82,50.18,30.1,63.0,8.95
278,gangarampur,9,IN,1563513234,48,25.41,88.52,96.95,7.72
279,baykit,0,RU,1563513234,31,61.68,96.39,67.79,14.34
280,yarmouth,40,CA,1563513235,93,43.84,-66.12,57.2,2.24
281,vallenar,0,CL,1563512991,68,-28.58,-70.76,49.07,1.68
282,sheopur,0,IN,1563513178,36,25.67,76.7,98.21,6.11
283,ubatuba,94,BR,1563513235,98,-23.43,-45.08,52.13,1.57
284,dosso,100,NE,1563513235,71,13.05,3.19,78.41,14.52
285,felanitx,20,ES,1563513235,82,39.47,3.15,73.99,2.24
286,ndjole,100,GA,1563513235,94,-0.18,10.76,73.01,1.41
287,keta,40,GH,1563513236,88,5.92,0.99,77.0,11.41
288,farafangana,0,MG,1563513236,84,-22.82,47.83,66.53,2.28
289,megion,40,RU,1563513236,73,61.04,76.11,77.0,8.95
290,bonthe,100,SL,1563513236,90,7.53,-12.5,75.53,7.87
291,chistogorskiy,98,RU,1563513236,87,53.98,87.38,66.35,9.51
292,kirkwood,40,ZA,1563513237,93,-33.4,25.44,59.0,27.51
293,singkang,75,MY,1563513237,66,2.1,102.8,86.0,8.05
294,minas,100,UY,1563513237,100,-34.38,-55.24,48.2,3.02
295,naze,100,NG,1563512994,94,5.43,7.07,73.73,5.82
296,keti bandar,76,PK,1563512946,79,24.14,67.45,82.91,11.88
297,manokwari,9,ID,1563513237,73,-0.87,134.08,78.05,2.26
298,codrington,0,AU,1563513040,28,-28.95,153.24,71.6,8.05
299,batemans bay,0,AU,1563513138,52,-35.71,150.18,62.01,1.01
300,college,75,US,1563512750,56,64.86,-147.8,75.2,8.05
301,bobrovka,83,RU,1563513238,66,52.3,45.54,71.03,7.85
302,kloulklubed,75,PW,1563513046,88,7.04,134.26,80.6,6.93
303,deputatskiy,100,RU,1563512945,70,69.3,139.9,42.23,8.1
304,gashua,100,NG,1563513238,79,12.87,11.04,75.71,22.59
305,tazovskiy,0,RU,1563513238,68,67.47,78.7,69.77,13.24
306,saint-pierre,75,FR,1563512960,93,48.95,4.24,64.0,3.36
307,saskylakh,22,RU,1563512959,37,71.97,114.09,63.65,7.52
308,saint-joseph,20,FR,1563513037,88,43.56,6.97,71.6,4.7
309,muravlenko,0,RU,1563513239,53,63.79,74.5,79.85,5.48
310,radzyn podlaski,0,PL,1563513239,87,51.78,22.62,75.0,1.12
311,ambilobe,0,MG,1563513240,44,-13.19,49.05,79.85,11.48
312,maragogi,25,BR,1563513227,95,-9.01,-35.22,68.51,4.27
313,innisfail,0,AU,1563513240,45,-17.52,146.03,71.01,5.01
314,bandarbeyla,100,SO,1563513016,36,9.49,50.81,88.13,31.54
315,big rapids,40,US,1563513022,94,43.7,-85.48,78.8,5.82
316,yinchuan,82,CN,1563513240,39,38.48,106.21,80.01,5.01
317,awjilah,0,LY,1563513054,47,29.14,21.3,78.05,4.32
318,marrakesh,0,MA,1563513241,77,31.63,-7.99,66.2,6.93
319,kasongo-lunda,11,CD,1563513241,38,-6.48,16.82,65.27,2.13
320,aykhal,40,RU,1563512972,38,65.95,111.51,59.0,11.18
321,roma,0,IT,1563512845,72,41.89,12.48,72.0,3.36
322,poli,100,CM,1563513241,95,8.48,13.24,71.03,2.21
323,caraquet,1,CA,1563513242,82,47.79,-64.94,59.0,3.36
324,tieli,28,CN,1563513242,60,46.98,128.05,83.09,4.0
325,nhulunbuy,75,AU,1563513142,61,-12.18,136.78,80.6,14.99
326,jasper,1,US,1563512959,106,33.83,-87.28,80.6,0.94
327,yelahanka,75,IN,1563513242,100,13.1,77.6,79.0,5.82
328,kaspi,20,GE,1563513242,64,41.93,44.42,73.4,25.28
329,gambela,95,ET,1563513243,92,8.25,34.59,69.95,2.42
330,carutapera,30,BR,1563513008,92,-1.2,-46.02,73.73,2.42
331,arman,100,RU,1563513243,98,59.7,150.17,51.77,4.23
332,xinyu,19,CN,1563512964,69,27.8,114.93,89.39,5.44
333,donskoye,40,RU,1563513243,82,45.45,41.98,66.2,4.47
334,alausi,12,EC,1563513243,63,-2.2,-78.83,54.65,8.32
335,ostrovnoy,79,RU,1563513011,63,68.05,39.51,52.85,10.83
336,lavrentiya,100,RU,1563512956,79,65.58,-170.99,47.09,6.6
337,xifeng,43,CN,1563513244,51,42.73,124.72,85.97,8.66
338,caronport,0,CA,1563513244,85,50.46,-105.81,57.0,5.01
339,meulaboh,100,ID,1563512967,78,4.14,96.13,80.21,9.62
340,kavaratti,100,IN,1563513082,80,10.57,72.64,80.57,26.64
341,axim,100,GH,1563513010,91,4.87,-2.24,75.89,10.22
342,north bend,1,US,1563513032,77,43.41,-124.22,63.0,6.93
343,mfou,75,CM,1563513245,100,3.72,11.64,68.0,1.12
344,katubao,20,PH,1563513245,62,5.89,124.83,87.8,4.7
345,cherskiy,23,RU,1563512995,55,68.75,161.3,44.93,18.12
346,gevrai,5,IN,1563513245,47,19.27,75.75,89.93,6.29
347,kaitangata,100,NZ,1563512961,74,-46.28,169.85,50.0,5.99
348,muros,90,ES,1563513029,93,42.77,-9.06,64.99,5.82
349,marathon,38,CA,1563513178,97,48.72,-86.38,58.97,9.84
350,miami,20,US,1563512947,70,25.77,-80.19,84.99,4.7
351,narsaq,35,GL,1563512991,81,60.91,-46.05,48.2,5.82
352,harper,1,US,1563513246,61,30.3,-99.24,82.4,9.17
353,port augusta,0,AU,1563513246,32,-32.49,137.76,68.0,16.11
354,coolum beach,0,AU,1563513140,55,-26.53,153.09,69.01,4.38
355,mopipi,0,BW,1563513246,28,-21.2,24.86,54.83,2.82
356,sakaiminato,90,JP,1563513246,69,35.55,133.23,82.4,3.36
357,washington,20,US,1563512973,88,38.9,-77.04,80.01,3.38
358,khorixas,0,NA,1563513247,23,-20.37,14.96,57.89,6.49
359,qena,0,EG,1563513247,40,26.16,32.72,86.0,6.04
360,petropavlovsk-kamchatskiy,20,RU,1563512826,44,53.05,158.65,80.6,8.95
361,ribeira grande,0,PT,1563512989,88,38.52,-28.7,72.83,15.12
362,sambava,11,MG,1563513247,63,-14.27,50.17,73.55,4.0
363,inirida,93,CO,1563513123,97,3.87,-67.92,72.29,0.4
364,finote selam,81,ET,1563513248,84,10.7,37.27,64.91,1.95
365,udachnyy,40,RU,1563513093,38,66.42,112.4,59.0,11.18
366,leh,100,IN,1563513089,52,34.16,77.58,45.65,6.64
367,bonfim,0,BR,1563513248,71,-20.33,-44.24,55.4,4.7
368,pingliang,100,CN,1563513248,62,35.54,106.68,68.69,6.78
369,esmeraldas,0,BR,1563513248,66,-19.76,-44.31,55.4,9.17
370,padang,96,ID,1563512998,80,-0.92,100.36,80.93,5.19
371,maraa,77,BR,1563513248,96,-1.83,-65.37,70.67,1.07
372,noyabrsk,0,RU,1563513249,49,63.2,75.45,83.63,1.95
373,severodvinsk,0,RU,1563513249,67,64.56,39.82,60.8,8.95
374,moroni,20,GR,1563513249,60,35.09,24.92,80.01,5.82
375,menongue,0,AO,1563513249,49,-14.66,17.68,47.81,3.67
376,kernersville,1,US,1563513140,88,36.12,-80.07,78.01,3.87
377,magog,1,CA,1563513250,88,45.27,-72.15,66.99,4.7
378,nabire,26,ID,1563513250,59,-3.36,135.5,84.71,4.74
379,atar,0,MR,1563513022,28,20.52,-13.05,83.27,12.21
380,havelock,1,US,1563512951,78,34.88,-76.9,84.0,9.17
381,manaure,4,CO,1563513039,85,11.78,-72.45,79.85,18.14
382,kahului,40,US,1563513054,74,20.89,-156.47,82.4,20.8
383,kodaikanal,100,IN,1563513251,81,10.24,77.49,75.53,9.8
384,teknaf,87,BD,1563513251,80,20.86,92.31,84.89,15.5
385,paamiut,100,GL,1563512949,92,61.99,-49.67,42.59,5.48
386,geraldton,75,CA,1563512722,93,49.72,-86.95,62.6,6.93
387,elsmere,1,US,1563513252,83,39.01,-84.6,79.0,5.82
388,puerto montt,90,CL,1563513252,93,-41.47,-72.94,46.4,18.34
389,fairbanks,75,US,1563512995,56,64.84,-147.72,75.2,8.05
390,allapalli,100,IN,1563513252,86,19.43,80.06,80.57,1.36
391,sinegorskiy,23,RU,1563513252,52,48.01,40.84,73.73,6.69
392,coruripe,100,BR,1563512985,94,-10.12,-36.18,69.59,8.79
393,isangel,40,VU,1563512957,65,-19.55,169.27,77.0,9.17
394,ilulissat,100,GL,1563512685,93,69.22,-51.1,46.4,9.17
395,adrar,73,DZ,1563513080,11,27.87,-0.29,96.8,16.11
396,yerbogachen,43,RU,1563513067,34,61.28,108.01,65.09,14.56
397,miri,100,NG,1563513253,97,10.31,9.75,65.63,9.78
398,kandrian,100,PG,1563513253,84,-6.21,149.55,75.89,10.42
399,doctor arroyo,1,MX,1563513254,81,23.67,-100.18,64.55,10.65
400,raudeberg,75,NO,1563513043,87,61.99,5.14,59.0,13.87
401,luwuk,52,ID,1563513254,67,-0.95,122.79,75.53,4.34
402,namibe,0,AO,1563513025,69,-15.19,12.15,70.85,3.65
403,gillette,1,US,1563512946,77,44.29,-105.5,70.0,9.33
404,wajima,75,JP,1563513068,100,37.4,136.9,73.4,5.82
405,elizabeth city,1,US,1563513077,83,36.3,-76.22,82.99,8.81
406,umm kaddadah,83,SD,1563513007,55,13.6,26.69,82.37,13.49
407,dunedin,100,NZ,1563512955,81,-45.87,170.5,50.0,13.0
408,jos,100,NG,1563513255,98,9.92,8.9,67.97,3.42
409,devils lake,1,US,1563512984,88,48.11,-98.87,73.4,8.05
410,dubbo,0,AU,1563513255,41,-32.25,148.6,60.8,6.93
411,makakilo city,90,US,1563513255,69,21.35,-158.09,84.2,3.36
412,punta gorda,1,US,1563513255,94,26.93,-82.05,80.6,5.82
413,antalaha,29,MG,1563513256,74,-14.9,50.28,69.23,2.84
414,cockburn town,93,TC,1563512841,79,21.46,-71.14,82.91,22.08
415,nefteyugansk,0,RU,1563513256,73,61.09,72.61,69.8,11.18
416,nara,75,JP,1563513256,94,34.68,135.8,80.6,4.7
417,sumter,1,US,1563513028,100,33.92,-80.34,78.01,5.82
418,santa rosa,21,AR,1563513256,41,-36.62,-64.29,42.23,7.31
419,ararat,0,AM,1563513257,39,39.85,44.7,80.6,4.7
420,silves,0,PT,1563513257,68,37.19,-8.44,71.6,4.7
421,kudahuvadhoo,99,MV,1563513257,73,2.67,72.89,82.91,16.22
422,serrinha,42,BR,1563513257,95,-11.66,-39.0,63.11,8.52
423,agirish,99,RU,1563513257,69,61.92,63.02,62.03,5.06
424,russell,1,US,1563513009,52,38.9,-98.86,87.8,16.11
425,tabuk,100,PH,1563513258,78,17.41,121.44,74.99,6.71
426,gaya,20,IN,1563513258,63,24.8,85.01,91.4,4.7
427,arraial do cabo,7,BR,1563512708,77,-22.97,-42.02,63.65,10.56
428,buriti bravo,0,BR,1563513258,62,-5.84,-43.84,72.65,8.21
429,riohacha,10,CO,1563513258,82,11.54,-72.91,79.49,10.76
430,cooma,0,AU,1563513259,35,-36.24,149.13,57.2,4.7
431,san ramon,73,NI,1563513259,94,12.92,-85.84,65.45,6.26
432,beira,90,ES,1563513259,93,43.2,-8.36,64.99,2.24
433,guimaraes,90,PT,1563513259,100,41.44,-8.3,64.99,1.66
434,moerai,1,PF,1563513259,69,-22.43,-151.33,69.59,14.43
435,maningrida,36,AU,1563513260,54,-12.05,134.23,81.65,12.8
436,praia da vitoria,20,PT,1563513260,94,38.73,-27.07,70.0,15.26
437,mulege,3,MX,1563513260,50,26.88,-111.98,88.85,3.02
438,ankazoabo,0,MG,1563513260,53,-22.29,44.51,67.25,5.48
439,kesova gora,53,RU,1563513260,88,57.58,37.3,58.97,5.5
440,ocampo,58,MX,1563513261,57,27.32,-102.4,74.09,4.32
441,wittingen,0,DE,1563513261,88,52.73,10.74,64.99,7.14
442,sao gabriel da cachoeira,64,BR,1563513035,97,-0.13,-67.09,71.39,1.34
443,zhigansk,0,RU,1563513042,37,66.77,123.37,62.57,22.28
444,hirara,75,JP,1563512787,84,24.8,125.28,86.0,19.46
445,beyneu,0,KZ,1563513010,19,45.32,55.19,100.19,14.58
446,liku,72,ID,1563513262,70,-0.73,119.89,83.09,4.76
447,chermoz,0,RU,1563513262,66,58.79,56.15,60.59,4.07
448,newark,90,US,1563513162,88,40.74,-74.17,73.4,5.82
449,georgetown,0,GY,1563512945,100,6.8,-58.16,77.0,4.7
450,fortuna,1,US,1563512822,82,40.6,-124.16,60.01,4.7
451,melenki,0,RU,1563513262,77,55.94,42.98,66.2,2.24
452,zemio,72,CF,1563513263,96,5.02,25.13,71.03,4.12
453,akdepe,0,TM,1563512984,10,42.05,59.39,102.2,9.17
454,mandalgovi,51,MN,1563512882,42,45.76,106.27,75.35,18.37
455,san matias,53,BO,1563513263,48,-16.36,-58.4,73.01,3.2
456,tucupita,61,VE,1563513263,95,9.06,-62.05,72.83,4.56
457,maldonado,100,UY,1563512726,100,-34.91,-54.96,48.2,9.08
458,teya,5,MX,1563513263,78,21.05,-89.07,81.0,9.17
459,te anau,72,NZ,1563512947,89,-45.41,167.72,43.85,6.58
460,sosnovo-ozerskoye,51,RU,1563513264,36,52.53,111.54,82.73,1.16
461,eyl,40,SO,1563512978,38,7.98,49.82,85.07,35.1
462,progreso,0,UY,1563513105,93,-34.68,-56.22,54.0,8.05
463,batsfjord,20,NO,1563513264,76,70.63,29.72,53.6,16.11
464,la rioja,0,AR,1563513264,78,-29.41,-66.86,39.89,3.4
465,dryden,75,CA,1563513264,88,49.79,-92.84,64.4,13.87
466,henties bay,0,NA,1563512966,90,-22.12,14.28,48.99,11.86
467,piranshahr,0,IR,1563513265,11,36.7,45.14,75.17,2.28
468,pong,97,CM,1563513265,98,4.23,10.63,71.57,1.34
469,benjamin constant,20,BR,1563513265,100,-4.38,-70.03,75.2,6.93
470,teahupoo,20,PF,1563513265,57,-17.83,-149.27,75.2,4.7
471,staryy nadym,13,RU,1563513265,53,65.61,72.68,83.09,6.76
472,canutama,35,BR,1563513266,76,-6.53,-64.38,73.73,2.1
473,seymchan,100,RU,1563513266,72,62.93,152.39,49.25,13.15
474,satuba,75,BR,1563513266,83,-9.57,-35.82,73.4,5.82
475,netanya,20,IL,1563513096,65,32.33,34.86,82.4,5.82
476,sirjan,0,IR,1563513266,24,29.44,55.67,89.03,4.36
477,okha,65,RU,1563513110,90,53.59,142.95,58.97,10.45
478,lardos,0,GR,1563513267,69,36.09,28.02,77.0,6.93
479,la serena,75,CL,1563513267,93,-29.9,-71.25,50.0,9.17
480,kibala,0,TD,1563513267,94,9.11,18.35,73.4,5.66
481,methoni,0,GR,1563513267,72,36.82,21.7,75.0,5.82
482,malanje,0,AO,1563513267,35,-9.54,16.35,57.17,5.59
483,bundaberg,40,AU,1563513267,35,-24.87,152.35,71.6,13.87
484,kharan,0,PK,1563513268,29,28.58,65.42,98.21,6.24
485,poronaysk,100,RU,1563513268,67,49.22,143.1,75.35,9.91
486,norrkoping,0,SE,1563513268,77,58.59,16.18,60.8,3.15
487,ponta delgada,75,PT,1563513268,94,37.73,-25.67,69.8,10.29
488,jacareacanga,0,BR,1563513268,67,-6.22,-57.76,74.27,1.03
489,maniitsoq,100,GL,1563513103,88,65.42,-52.9,44.93,17.16
490,le port,3,FR,1563513035,68,42.87,1.37,64.0,4.0
491,petrovsk-zabaykalskiy,99,RU,1563513269,37,51.27,108.84,80.57,8.21
492,kamennogorsk,90,RU,1563513269,93,60.95,29.13,60.01,5.82
493,kidal,6,ML,1563513269,42,18.44,1.41,87.05,11.32
494,san sebastian,95,GT,1563513269,90,14.56,-91.65,53.01,3.18
495,plettenberg bay,68,ZA,1563513015,80,-34.05,23.37,53.21,18.92
496,guerrero negro,0,MX,1563512970,88,27.97,-114.04,65.45,14.67
497,visavadar,30,IN,1563513270,52,21.34,70.75,89.03,7.63
498,turukhansk,66,RU,1563512757,33,65.8,87.96,76.79,16.82
499,kundiawa,77,PG,1563513271,86,-6.02,144.97,60.41,4.81
500,hita,75,JP,1563513271,83,33.31,130.95,84.99,4.7
501,ambon,75,FR,1563513271,100,47.55,-2.56,64.0,2.24
502,nemuro,75,JP,1563513134,93,43.32,145.57,66.2,6.93
503,cimahi,58,ID,1563513271,46,-6.87,107.54,81.47,4.9
504,paita,33,PE,1563513272,91,-5.09,-81.11,61.85,11.9
505,morden,1,CA,1563513272,60,49.19,-98.1,71.6,8.05
506,khani,97,GE,1563512948,94,41.96,42.96,71.6,5.82
507,votkinsk,22,RU,1563513272,67,57.05,53.99,71.01,3.0
508,hillsborough,75,US,1563513272,77,37.57,-122.38,62.6,13.87
509,muchkapskiy,0,RU,1563513272,64,51.85,42.48,67.79,9.31
510,akhisar,0,TR,1563513273,73,38.92,27.84,71.6,6.17
511,hearst,23,CA,1563512974,86,49.69,-83.67,59.15,8.81
512,sabang,100,PH,1563513097,59,13.8,121.11,88.13,8.12
513,bubaque,100,GW,1563513273,82,11.28,-15.83,79.85,20.67
514,wenchi,99,GH,1563513273,89,7.74,-2.1,72.47,9.57
515,nowy dwor gdanski,0,PL,1563513273,87,54.21,19.12,66.99,1.12
516,baruun-urt,100,MN,1563513076,70,46.68,113.28,72.29,7.14
517,uinskoye,0,RU,1563513274,74,56.88,56.58,70.85,9.48
518,atlantic beach,1,US,1563513274,78,30.33,-81.4,82.0,3.36
519,alcaniz,0,ES,1563513274,70,41.05,-0.13,64.99,0.87
520,mahibadhoo,100,MV,1563513127,77,3.78,72.97,83.45,22.32
521,gorontalo,73,ID,1563513274,74,0.54,123.06,82.73,12.26
522,vila velha,75,BR,1563512961,78,-3.71,-38.6,86.0,11.41
523,yermakovskoye,64,RU,1563513275,59,53.28,92.4,74.27,6.64
524,port hardy,75,CA,1563513041,100,50.7,-127.42,53.6,4.7
525,oum hadjer,82,TD,1563513275,56,13.3,19.7,81.47,16.11
526,shimoda,75,JP,1563512996,88,34.7,138.93,84.99,21.92
527,marshall,1,US,1563513275,78,32.54,-94.37,82.99,6.93
528,morondava,0,MG,1563513275,70,-20.3,44.28,67.79,11.54
529,ingham,0,AU,1563513275,43,-18.65,146.16,68.33,5.59
530,imbituba,75,BR,1563512963,93,-28.24,-48.67,62.6,3.36
531,kasempa,0,ZM,1563513276,65,-13.46,25.83,54.47,7.23
532,poum,20,MK,1563513276,87,41.28,20.71,59.0,2.24
533,salinopolis,47,BR,1563513137,75,-0.61,-47.36,81.47,14.5
534,fuyu,100,CN,1563513276,56,47.79,124.46,83.81,7.92
535,monrovia,77,LR,1563513276,89,6.33,-10.8,75.89,10.65
536,vila,40,IT,1563513064,88,45.18,8.4,72.0,3.36
537,massakory,100,TD,1563513277,66,13.0,15.73,81.11,12.75
538,kalmunai,99,LK,1563513001,42,7.42,81.82,93.89,19.37
539,trat,90,TH,1563513277,94,12.25,102.51,82.99,5.82
540,matay,0,EG,1563513277,45,28.42,30.79,83.09,13.11
541,balkhash,0,KZ,1563513277,21,46.84,74.98,89.6,17.9
542,marana,1,US,1563513278,31,32.44,-111.22,93.2,8.41
543,acapulco,75,MX,1563512993,62,16.86,-99.88,84.2,8.05
544,youkounkoun,100,GN,1563513278,97,12.53,-13.12,72.29,4.97
545,ponta pora,95,BR,1563513279,58,-22.54,-55.73,62.93,6.51
546,kunya,100,NG,1563513279,69,12.22,8.53,77.51,14.03
547,birjand,0,IR,1563513127,10,32.86,59.22,89.6,18.34
548,cayenne,0,GF,1563512988,94,4.94,-52.33,75.2,1.74
549,trabzon,75,TR,1563513279,69,41.01,39.72,75.2,4.27
550,paka,100,CF,1563513279,97,4.15,15.03,68.33,3.4
551,suluq,2,LY,1563513279,67,31.67,20.25,76.79,7.67
552,kabinda,0,CD,1563513280,32,-6.14,24.49,69.23,3.85
553,pringsewu,79,ID,1563512957,61,-5.36,104.98,83.63,8.3
554,howard springs,0,AU,1563513280,18,-12.5,131.05,91.0,9.17
555,constitucion,93,MX,1563512973,63,23.99,-104.67,64.99,3.0
556,avera,1,US,1563512957,83,33.19,-82.53,79.0,3.36
557,umm lajj,58,SA,1563513280,76,25.02,37.27,87.05,15.05
558,saint-francois,0,FR,1563513142,93,46.42,3.91,54.0,3.36
559,taoudenni,54,ML,1563512701,21,22.68,-3.98,96.41,18.99
560,marsa matruh,20,EG,1563512991,83,31.35,27.25,71.6,5.39
561,lasa,20,CY,1563513067,73,34.92,32.53,78.8,5.82
562,brigantine,75,US,1563513134,94,39.41,-74.36,77.0,4.14
563,kovdor,100,RU,1563513281,85,67.56,30.47,51.23,6.69
564,namatanai,78,PG,1563513021,81,-3.66,152.44,80.21,10.96
565,sobolevo,97,RU,1563513281,93,54.43,31.9,57.35,15.12
