City_ID,City,Cloudiness,Country,Date,Humidity,Lat,Lng,Max Temp,Wind Speed
0,mecca,50,SA,1563556846,47,21.43,39.83,90.31,11.5
1,cidreira,83,BR,1563556830,60,-30.17,-50.22,69.43,2.37
2,mahebourg,75,MU,1563557019,83,-20.41,57.7,71.6,16.11
3,ciudad bolivar,0,VE,1563557356,47,8.12,-63.55,91.93,8.77
4,laguna,40,BZ,1563557078,74,16.17,-88.94,86.0,4.7
5,zhanaozen,43,KZ,1563557117,28,43.35,52.85,90.31,20.02
6,thompson,75,CA,1563557045,82,55.74,-97.86,59.0,12.75
7,victoria,75,BN,1563557050,88,5.28,115.24,82.4,1.12
8,qaanaaq,100,GL,1563557024,78,77.48,-69.36,40.45,7.96
9,meulaboh,100,ID,1563557356,86,4.14,96.13,77.71,5.59
10,port alfred,72,ZA,1563556966,77,-33.59,26.89,55.99,11.01
11,tasiilaq,20,GL,1563557044,70,65.61,-37.64,48.2,10.29
12,jamestown,0,AU,1563557019,46,-33.21,138.6,50.17,13.33
13,ushuaia,40,AR,1563557043,64,-54.81,-68.31,41.0,9.17
14,marsh harbour,60,BS,1563557289,72,26.54,-77.06,84.01,11.18
15,bowen,0,AU,1563557357,93,-20.01,148.25,57.0,4.7
16,bredasdorp,62,ZA,1563557031,81,-34.53,20.04,50.0,11.41
17,kapaa,90,US,1563557045,88,22.08,-159.32,78.8,14.99
18,chokurdakh,85,RU,1563557039,87,70.62,147.9,35.95,8.59
19,baruun-urt,34,MN,1563557055,97,46.68,113.28,61.15,9.44
20,sitka,0,US,1563557082,37,37.17,-99.65,97.0,15.99
21,sun city west,20,US,1563557060,12,33.66,-112.34,100.0,13.87
22,redlands,20,US,1563557348,64,34.06,-117.19,80.01,4.63
23,barrow,85,AR,1563557042,38,-38.31,-60.23,56.11,15.73
24,hermanus,56,ZA,1563557021,97,-34.42,19.24,52.0,4.0
25,george town,75,MY,1563557358,83,5.42,100.33,84.2,2.24
26,russkaya polyana,43,RU,1563557358,74,53.78,73.88,65.47,8.3
27,anadyr,75,RU,1563557113,77,64.73,177.51,59.0,4.47
28,atuona,41,PF,1563557039,76,-9.8,-139.03,79.51,14.29
29,clyde river,75,CA,1563557050,93,70.47,-68.59,42.8,16.11
30,ponta delgada,40,PT,1563557136,88,37.73,-25.67,73.4,12.75
31,damaturu,93,NG,1563557359,49,11.75,11.96,87.25,10.36
32,albany,40,US,1563556892,66,42.65,-73.75,89.01,6.93
33,misratah,0,LY,1563557359,67,32.38,15.09,78.61,14.18
34,castro,40,CL,1563557072,66,-42.48,-73.76,48.2,10.29
35,huarmey,46,PE,1563557128,83,-10.07,-78.15,62.59,9.78
36,mar del plata,77,AR,1563557039,39,-46.43,-67.52,46.39,28.5
37,arroyo,75,BO,1563557360,62,-11.08,-66.08,87.8,6.93
38,manokwari,0,ID,1563557097,71,-0.87,134.08,73.57,5.48
39,hobart,8,AU,1563556825,81,-42.88,147.33,45.0,8.05
40,yellowknife,75,CA,1563557032,51,62.45,-114.38,62.01,7.72
41,puerto ayora,75,EC,1563557015,69,-0.74,-90.35,75.2,16.11
42,busselton,49,AU,1563557045,98,-33.64,115.35,46.99,29.08
43,rikitea,96,PF,1563556988,60,-23.12,-134.97,66.19,13.73
44,quchan,0,IR,1563557118,17,37.11,58.51,78.61,7.18
45,bethel,90,US,1563557024,100,60.79,-161.76,53.6,5.82
46,punta arenas,0,CL,1563556902,76,-53.16,-70.91,39.2,17.22
47,chirongui,0,YT,1563557361,83,-12.93,45.15,75.2,9.17
48,paka,100,CF,1563557361,95,4.15,15.03,69.97,1.23
49,brigantine,40,US,1563557362,66,39.41,-74.36,93.99,8.05
50,hilo,90,US,1563556997,88,19.71,-155.08,79.0,5.82
51,pisco,90,PE,1563557064,30,-13.71,-76.2,71.6,5.82
52,bud,75,NO,1563557362,82,62.91,6.91,62.6,5.82
53,mataura,100,NZ,1563557017,97,-46.19,168.86,45.0,3.0
54,divnogorsk,75,RU,1563557362,93,55.96,92.38,64.4,11.18
55,vaini,98,IN,1563557014,89,15.34,74.49,78.25,4.12
56,saskylakh,72,RU,1563557046,50,71.97,114.09,54.13,9.6
57,port-cartier,75,CA,1563557114,43,50.03,-66.88,71.6,11.41
58,haines junction,84,CA,1563557363,82,60.75,-137.51,53.59,6.02
59,nanortalik,21,GL,1563557139,88,60.14,-45.24,44.41,4.99
60,lebu,92,ET,1563557027,88,8.96,38.73,58.63,2.77
61,la paz,40,MX,1563557363,37,24.15,-110.32,86.0,6.93
62,culaman,64,PH,1563557363,85,5.96,125.66,65.29,1.05
63,lasa,20,CY,1563557049,74,34.92,32.53,80.6,13.87
64,srandakan,79,ID,1563557364,89,-7.94,110.25,75.91,11.79
65,beringovskiy,100,RU,1563557026,78,63.05,179.32,56.83,7.87
66,yulara,0,AU,1563557119,35,-25.24,130.99,42.8,3.36
67,dikson,15,RU,1563557016,82,73.51,80.55,40.27,21.39
68,upata,55,VE,1563557134,63,8.02,-62.41,89.01,4.0
69,biltine,48,TD,1563557364,31,14.53,20.93,92.83,6.29
70,khatanga,87,RU,1563557048,51,71.98,102.47,57.55,7.9
71,bubaque,80,GW,1563557365,81,11.28,-15.83,78.97,19.35
72,thurso,75,CA,1563557365,58,45.6,-75.25,89.01,17.22
73,cabo san lucas,20,MX,1563556900,58,22.89,-109.91,95.0,12.75
74,bilibino,96,RU,1563557365,79,68.06,166.44,34.87,4.29
75,port lincoln,0,AU,1563557088,61,-34.72,135.86,59.35,24.52
76,tuktoyaktuk,90,CA,1563557040,93,69.44,-133.03,53.6,6.93
77,nuuk,75,GL,1563556995,81,64.17,-51.74,50.0,9.17
78,palana,100,RU,1563557082,98,59.08,159.95,51.79,16.33
79,severo-kurilsk,77,RU,1563557025,94,50.68,156.12,48.37,7.09
80,necochea,83,AR,1563557086,59,-38.55,-58.74,59.0,8.99
81,kisangani,88,CD,1563557366,74,0.52,25.21,76.99,1.41
82,egvekinot,100,RU,1563557115,97,66.32,-179.17,47.29,7.2
83,lavrentiya,100,RU,1563557120,86,65.58,-170.99,49.63,7.43
84,zhangjiakou,99,CN,1563557366,90,40.77,114.88,64.57,3.91
85,mankono,84,CI,1563557367,93,8.06,-6.19,75.91,2.26
86,aklavik,75,CA,1563557075,82,68.22,-135.01,59.0,11.41
87,puerto leguizamo,70,CO,1563557367,89,-0.19,-74.78,79.51,3.2
88,woodward,1,US,1563557358,34,36.43,-99.39,98.01,17.22
89,gazojak,0,TM,1563557367,14,41.19,61.4,94.81,6.91
90,torbay,40,CA,1563556733,49,47.66,-52.73,73.99,31.09
91,kodinsk,100,RU,1563557077,51,58.6,99.18,59.71,11.25
92,kaitangata,100,NZ,1563557064,84,-46.28,169.85,46.99,8.99
93,cherskiy,66,RU,1563557079,79,68.75,161.3,42.25,5.77
94,the valley,40,AI,1563557303,70,18.22,-63.06,87.8,13.87
95,ribeira grande,40,PT,1563557016,83,38.52,-28.7,77.0,12.75
96,itarema,16,BR,1563557368,48,-2.92,-39.92,86.53,12.55
97,hithadhoo,93,MV,1563557083,77,-0.6,73.08,83.11,16.44
98,hofn,75,IS,1563557101,76,64.25,-15.21,55.4,12.75
99,udachnyy,40,RU,1563557368,57,66.42,112.4,50.0,8.95
100,longyearbyen,75,NO,1563557103,66,78.22,15.63,50.0,11.41
101,lake cowichan,40,CA,1563557163,63,48.82,-124.05,64.99,4.7
102,nishihara,1,JP,1563557071,83,35.74,139.53,82.99,5.82
103,shimoda,100,JP,1563557068,91,34.7,138.93,77.0,1.99
104,jalu,0,LY,1563556816,20,29.03,21.55,88.33,10.49
105,acopiara,40,BR,1563557141,43,-6.09,-39.45,84.73,9.17
106,coquimbo,0,CL,1563557022,59,-29.95,-71.34,62.6,9.17
107,nazira,47,IN,1563557369,86,26.91,94.73,82.03,5.79
108,viline,0,UA,1563557369,55,44.84,33.66,75.91,17.09
109,geraldton,20,CA,1563557018,60,49.72,-86.95,75.2,12.75
110,najran,40,SA,1563557370,12,17.54,44.22,93.2,4.7
111,durban,16,CA,1563557370,74,51.93,-101.44,62.59,15.68
112,butaritari,100,KI,1563557064,66,3.07,172.79,84.55,8.25
113,natal,40,BR,1563557371,65,-5.81,-35.21,82.4,23.04
114,flinders,0,AU,1563557084,81,-34.58,150.85,50.0,10.29
115,rocha,70,UY,1563557130,83,-34.48,-54.34,60.43,6.51
116,comodoro rivadavia,40,AR,1563557066,46,-45.87,-67.48,50.0,35.57
117,vanimo,84,PG,1563557371,75,-2.67,141.3,82.21,5.44
118,faanui,55,PF,1563556992,73,-16.48,-151.75,76.63,12.59
119,guerrero negro,0,MX,1563557105,86,27.97,-114.04,65.83,13.58
120,clacton-on-sea,100,GB,1563557371,88,51.79,1.16,69.01,14.99
121,esperance,90,AU,1563557076,76,-33.86,121.89,55.4,24.16
122,lundazi,48,ZM,1563557372,55,-12.29,33.17,62.05,9.37
123,ossora,86,RU,1563556895,98,59.24,163.07,55.39,1.34
124,hovd,0,NO,1563557023,77,63.83,10.7,64.4,17.22
125,acapulco,75,MX,1563557372,74,16.86,-99.88,86.0,5.82
126,kaeo,3,NZ,1563557372,95,-35.1,173.78,46.0,3.0
127,moerai,27,PF,1563557372,75,-22.43,-151.33,69.25,17.92
128,kautokeino,64,NO,1563557373,60,69.01,23.04,61.87,6.89
129,georgetown,75,GY,1563556921,70,6.8,-58.16,86.0,9.17
130,sinnamary,2,GF,1563557091,77,5.38,-52.96,81.67,13.35
131,shingu,100,JP,1563557133,95,33.72,135.99,67.63,4.05
132,kodiak,1,US,1563557020,59,39.95,-94.76,93.0,16.11
133,harper,1,US,1563557373,48,30.3,-99.24,89.01,11.41
134,luwuk,77,ID,1563557204,98,-0.95,122.79,62.23,3.42
135,pontianak,85,ID,1563557373,79,-0.02,109.34,82.93,5.75
136,alice springs,12,AU,1563557057,36,-23.7,133.88,46.4,9.35
137,chuy,60,UY,1563557023,79,-33.69,-53.46,60.25,6.38
138,komsomolskiy,92,RU,1563557029,80,67.55,63.78,63.85,9.84
139,lexington,40,US,1563557374,70,38.05,-84.5,91.0,5.82
140,saldanha,0,PT,1563557058,21,41.42,-6.55,90.31,13.58
141,zalaegerszeg,0,HU,1563557374,57,46.84,16.85,81.0,4.14
142,bani,19,YE,1563557096,79,16.02,42.93,87.61,5.88
143,tiksi,92,RU,1563557025,81,71.64,128.87,39.19,4.85
144,pangkalanbuun,80,ID,1563557375,99,-2.68,111.62,74.65,1.95
145,oranjemund,0,ZA,1563557087,85,-28.55,16.43,55.75,19.39
146,burdur,75,TR,1563557375,36,37.72,30.29,80.6,8.05
147,airai,1,TL,1563557053,78,-8.93,125.41,67.45,4.92
148,cape town,40,ZA,1563557021,71,-33.93,18.42,55.0,9.17
149,lagoa,0,PT,1563557067,57,37.14,-8.45,84.99,11.41
150,arraial do cabo,20,BR,1563557113,68,-22.97,-42.02,71.6,20.8
151,ust-kuyga,94,RU,1563557376,84,70.0,135.55,36.67,5.88
152,nemuro,100,JP,1563557376,98,43.32,145.57,58.09,10.96
153,kysyl-syr,0,RU,1563557376,58,63.9,122.77,43.69,5.08
154,riberalta,75,BO,1563557138,62,-11.0,-66.08,87.8,6.93
155,ponta do sol,27,BR,1563557022,49,-20.63,-46.0,67.63,8.23
156,mlonggo,72,ID,1563557377,74,-6.53,110.7,80.59,18.03
157,young,77,UY,1563557377,61,-32.7,-57.63,71.01,5.01
158,yar-sale,33,RU,1563557128,72,66.83,70.83,69.43,3.36
159,kaeng khoi,78,TH,1563557377,81,14.59,101.0,79.0,3.0
160,sioux lookout,75,CA,1563557030,69,50.1,-91.92,77.0,14.99
161,mackay,100,CA,1563557378,100,53.65,-115.58,53.6,10.29
162,kununurra,28,AU,1563557095,72,-15.77,128.74,59.0,2.24
163,opuwo,0,NA,1563557378,18,-18.06,13.84,66.73,8.25
164,oban,85,GB,1563557378,77,56.42,-5.47,64.0,0.92
165,kushima,100,JP,1563557378,88,31.5,131.29,78.01,13.0
166,awash,25,ET,1563557379,43,8.99,40.17,81.49,4.85
167,angoram,15,PG,1563557379,99,-4.06,144.07,73.39,1.34
168,castiglione del lago,20,IT,1563557379,25,43.13,12.05,89.6,5.82
169,seoul,75,KR,1563556937,88,37.57,126.98,82.4,1.12
170,pokosnoye,23,RU,1563557379,95,55.53,101.05,56.29,1.88
171,salalah,75,OM,1563557051,94,17.01,54.1,80.6,3.36
172,broken hill,0,AU,1563556885,56,-31.97,141.45,44.6,8.05
173,navalmoral de la mata,0,ES,1563557380,28,39.89,-5.54,98.01,9.82
174,homer,1,US,1563556824,77,59.64,-151.54,64.0,3.36
175,roald,40,NO,1563557380,72,62.58,6.12,64.4,9.17
176,fortuna,20,US,1563556946,77,40.6,-124.16,72.0,5.82
177,pontal do parana,0,BR,1563557380,55,-25.67,-48.51,72.0,6.93
178,nikolskoye,90,RU,1563557020,88,59.7,30.79,63.0,8.95
179,pevek,100,RU,1563557081,98,69.7,170.27,32.17,8.1
180,kofele,73,ET,1563557381,89,7.07,38.78,59.17,5.35
181,nelson bay,0,AU,1563557112,93,-32.72,152.14,51.01,4.7
182,lompoc,90,US,1563556948,87,34.64,-120.46,66.0,4.7
183,upernavik,98,GL,1563557085,91,72.79,-56.15,44.23,13.58
184,provideniya,67,RU,1563557019,82,64.42,-173.23,54.13,4.52
185,saint-francois,0,FR,1563557381,33,46.42,3.91,86.0,3.36
186,aksarka,75,RU,1563557092,73,66.56,67.8,65.11,1.72
187,yura,75,JP,1563557382,100,33.96,135.12,75.2,13.87
188,ilo,90,PE,1563557382,72,-17.65,-71.34,62.6,8.05
189,juneau,90,US,1563557383,100,58.3,-134.42,57.2,10.29
190,avarua,2,CK,1563556961,100,-21.21,-159.78,66.2,2.24
191,bodden town,40,KY,1563557383,70,19.28,-81.25,89.6,14.99
192,fort nelson,75,CA,1563557383,82,58.81,-122.69,62.6,5.82
193,isiro,23,CD,1563557384,90,2.77,27.62,70.15,2.59
194,yelets,16,RU,1563557384,86,52.61,38.49,60.43,10.85
195,kenora,75,CA,1563557328,73,49.76,-94.48,73.4,13.87
196,san patricio,28,PY,1563557063,73,-26.98,-56.83,72.67,5.57
197,basco,1,US,1563557385,70,40.33,-91.2,91.99,9.17
198,hasaki,75,JP,1563557077,94,35.73,140.83,77.0,3.36
199,dingle,38,PH,1563557093,83,11.0,122.67,74.65,1.66
200,carballo,0,ES,1563557385,73,43.21,-8.69,82.0,6.93
201,ambon,90,FR,1563557385,77,47.55,-2.56,72.0,8.05
202,villarrica,90,CL,1563557385,93,-39.28,-72.23,45.0,12.75
203,bluff,0,AU,1563557017,59,-23.58,149.07,50.35,7.92
204,nantucket,90,US,1563557080,88,41.28,-70.1,82.0,6.93
205,teya,20,MX,1563557386,59,21.05,-89.07,91.99,10.29
206,mount gambier,100,AU,1563557075,87,-37.83,140.78,48.2,12.75
207,sisimiut,100,GL,1563557135,94,66.94,-53.67,41.53,13.47
208,dunkirk,20,FR,1563557386,68,51.03,2.38,79.0,8.05
209,saint-georges,52,CA,1563557386,100,46.12,-70.67,78.01,1.99
210,tunapuna,20,TT,1563557376,59,10.64,-61.39,89.6,16.11
211,ilulissat,75,GL,1563557029,93,69.22,-51.1,46.4,8.05
212,katsuura,75,JP,1563557131,100,33.93,134.5,75.2,13.87
213,markova,0,RU,1563557060,82,52.21,104.21,66.2,4.47
214,norman wells,40,CA,1563557018,68,65.28,-126.83,68.0,4.7
215,omsukchan,100,RU,1563557387,97,62.53,155.8,51.07,4.43
216,dukat,14,AL,1563557387,50,40.25,19.57,78.01,1.01
217,altona,1,US,1563557388,62,41.11,-90.16,91.99,10.29
218,samarai,97,PG,1563556989,90,-10.62,150.67,70.87,5.99
219,umm kaddadah,87,SD,1563557059,29,13.6,26.69,92.83,5.26
220,panama city,75,US,1563557136,70,30.16,-85.65,91.4,5.82
221,aykhal,40,RU,1563557388,57,65.95,111.51,50.0,8.95
222,hirara,100,JP,1563557141,83,24.8,125.28,83.83,11.74
223,curvelo,0,BR,1563557130,34,-18.76,-44.43,73.93,7.96
224,trincomalee,100,LK,1563557054,67,8.58,81.23,80.77,10.22
225,bichena,69,ET,1563557388,94,10.45,38.2,53.59,4.76
226,saint-philippe,75,CA,1563557040,62,45.36,-73.48,89.01,6.93
227,carnarvon,53,ZA,1563557049,70,-30.97,22.13,44.41,14.29
228,pottsville,90,US,1563557389,66,40.69,-76.2,93.99,5.82
229,bitung,63,ID,1563557389,92,1.44,125.19,70.87,3.44
230,ismailia,0,EG,1563557390,45,30.6,32.27,87.8,13.87
231,halifax,20,CA,1563557390,50,44.65,-63.58,78.01,6.93
232,saint george,75,GR,1563557080,42,39.45,22.34,82.4,8.05
233,gizo,20,IL,1563557391,61,31.8,34.94,82.99,8.05
234,kavaratti,100,IN,1563557075,76,10.57,72.64,81.67,21.52
235,banda aceh,100,ID,1563557391,90,5.56,95.32,78.25,23.73
236,northam,75,AU,1563557391,81,-31.65,116.67,51.8,8.05
237,palmer,0,AU,1563557030,47,-34.85,139.16,55.99,14.99
238,marshall,40,US,1563557391,66,32.54,-94.37,91.0,8.05
239,peniche,75,PT,1563557112,82,39.36,-9.38,79.0,17.22
240,tuy hoa,100,VN,1563556876,84,13.08,109.3,76.99,3.67
241,naze,99,NG,1563557123,96,5.43,7.07,72.67,5.39
242,tezu,93,IN,1563557097,78,27.93,96.16,76.45,3.8
243,kavieng,12,PG,1563557058,76,-2.57,150.8,83.47,13.15
244,cayenne,5,GF,1563557108,66,4.94,-52.33,89.6,11.41
245,manaus,40,BR,1563557392,66,-3.13,-59.98,91.4,3.36
246,evensk,100,RU,1563557392,99,61.92,159.24,50.17,3.78
247,new norfolk,20,AU,1563557070,86,-42.78,147.06,45.0,8.05
248,vestmannaeyjar,75,IS,1563557064,87,63.44,-20.27,55.4,5.82
249,campbell river,20,CA,1563557228,72,50.02,-125.24,59.0,3.36
250,hamilton,40,CA,1563557023,88,43.26,-79.87,91.0,4.7
251,vedi,0,AM,1563557393,37,39.91,44.72,84.2,24.16
252,kakching,53,IN,1563557393,98,24.5,93.98,72.31,1.61
253,khorixas,0,NA,1563557394,12,-20.37,14.96,69.07,6.62
254,platanos,0,GR,1563557394,47,35.47,23.6,86.0,5.82
255,christchurch,100,NZ,1563557106,93,-43.53,172.64,46.4,13.87
256,chifeng,92,CN,1563557394,79,42.27,118.96,70.15,5.5
257,batticaloa,75,LK,1563557394,68,7.71,81.69,80.05,9.06
258,eyl,65,SO,1563557395,51,7.98,49.82,82.03,21.77
259,prabumulih,99,ID,1563557395,98,-3.5,104.19,73.39,3.0
260,taoudenni,81,ML,1563557048,6,22.68,-3.98,115.51,6.42
261,luganville,56,VU,1563557395,97,-15.51,167.18,64.57,1.88
262,lucea,20,JM,1563557395,62,18.44,-78.17,89.6,27.51
263,buala,22,SB,1563557095,84,-8.15,159.59,78.07,7.05
264,jadu,0,LY,1563557396,36,31.95,12.03,81.13,15.82
265,beruwala,100,LK,1563557396,74,6.48,79.98,83.47,28.36
266,leningradskiy,75,RU,1563557396,82,69.38,178.42,36.67,1.83
267,winslow,75,GB,1563557396,93,51.94,-0.88,66.2,12.75
268,mount isa,0,AU,1563557397,56,-20.73,139.49,41.0,10.65
269,port elizabeth,40,US,1563557060,70,39.31,-74.98,95.0,4.7
270,semey,2,KZ,1563557397,48,50.41,80.25,67.09,7.56
271,codrington,0,AU,1563557067,86,-28.95,153.24,55.99,4.7
272,saint-junien,0,FR,1563557111,44,45.89,0.9,84.0,4.7
273,mezhdurechensk,72,RU,1563557397,98,53.69,88.07,57.91,2.06
274,alofi,40,NU,1563557105,94,-19.06,-169.92,73.4,6.93
275,vila franca do campo,40,PT,1563557062,88,37.72,-25.43,73.4,12.75
276,jinchang,25,CN,1563557398,28,38.52,102.19,68.35,5.84
277,camacupa,0,AO,1563557398,23,-12.02,17.48,59.53,4.41
278,stephenville,20,CA,1563557089,77,48.55,-58.59,63.0,14.99
279,rancho grande,0,BR,1563557398,53,-23.51,-46.36,75.0,2.24
280,orta nova,20,IT,1563557399,39,41.33,15.71,87.8,13.87
281,mayumba,95,GA,1563557016,91,-3.44,10.65,71.95,6.24
282,cortez,1,US,1563557399,16,37.35,-108.58,86.0,12.75
283,pampierstad,0,ZA,1563557399,50,-27.78,24.69,54.49,13.15
284,bachaquero,9,VE,1563557400,72,9.96,-71.12,84.73,3.06
285,lebowakgomo,0,ZA,1563557400,17,-24.3,29.54,64.4,10.29
286,aransas pass,75,US,1563557400,63,27.91,-97.15,93.2,14.99
287,bocas del toro,86,PA,1563557401,72,9.33,-82.25,83.47,7.52
288,iqaluit,67,CA,1563557029,81,63.75,-68.52,48.0,8.99
289,constitucion,75,MX,1563557111,60,23.99,-104.67,72.0,2.24
290,kudahuvadhoo,99,MV,1563557401,75,2.67,72.89,84.01,17.76
291,talaya,20,RU,1563557401,93,55.79,84.89,64.99,2.24
292,oksfjord,0,NO,1563557402,49,70.24,22.35,69.8,18.34
293,oktyabrskiy,0,RU,1563557402,68,55.61,37.97,69.01,4.47
294,bambous virieux,75,MU,1563557028,83,-20.34,57.76,71.6,16.11
295,fenton,75,GB,1563557119,88,53.0,-2.16,69.01,6.93
296,nyagan,26,RU,1563557404,71,62.14,65.43,62.23,0.34
297,punta alta,75,AR,1563557404,72,-27.46,-55.82,68.0,9.17
298,paamiut,100,GL,1563557106,87,61.99,-49.67,45.67,7.11
299,kathmandu,75,NP,1563557405,88,27.71,85.32,73.4,3.36
300,dubai,0,AE,1563557364,56,25.27,55.3,98.6,6.93
301,chernyshevskiy,0,RU,1563557405,73,63.01,112.47,45.85,5.61
302,east wenatchee bench,1,US,1563557405,34,47.43,-120.28,69.8,17.22
303,puerto parra,20,CO,1563557406,55,6.65,-74.06,89.6,3.36
304,riyadh,9,SA,1563557407,11,24.63,46.72,102.2,19.46
305,kilindoni,0,TZ,1563557407,80,-7.91,39.67,76.63,12.91
306,abu samrah,0,SY,1563557407,63,35.3,37.18,73.57,12.24
307,mogadishu,63,SO,1563557408,79,2.04,45.34,75.55,12.15
308,ulvik,40,NO,1563557409,55,60.57,6.92,64.4,8.05
309,jumla,10,NP,1563557409,93,29.28,82.18,52.87,2.55
310,broome,75,GB,1563557114,77,52.47,1.45,66.99,14.99
311,kruisfontein,100,ZA,1563557026,70,-34.0,24.73,49.45,28.63
312,tutoia,40,BR,1563557410,47,-2.76,-42.27,95.0,10.29
313,ancud,40,CL,1563557020,66,-41.87,-73.83,48.2,10.29
314,nouakchott,0,MR,1563557054,61,18.08,-15.98,82.4,24.16
315,acu,40,BR,1563557411,66,-3.35,-60.45,91.4,3.36
316,kamenka,23,MD,1563557411,52,48.03,28.7,73.99,2.48
317,bonavista,43,CA,1563557411,60,48.65,-53.11,61.51,14.27
318,maragogi,36,BR,1563557411,85,-9.01,-35.22,75.55,11.43
319,sorland,0,NO,1563557412,63,67.67,12.69,69.8,11.41
320,pacific grove,90,US,1563556892,72,36.62,-121.92,64.0,8.05
321,rovaniemi,0,FI,1563557412,67,66.5,25.72,62.6,5.82
322,omboue,70,GA,1563557412,88,-1.57,9.26,75.19,13.82
323,quimper,90,FR,1563557309,93,48.0,-4.1,68.0,11.41
324,soe,36,EE,1563557413,77,57.91,26.05,64.99,6.93
325,ishigaki,100,JP,1563557071,79,24.34,124.16,84.19,5.84
326,sawakin,6,SD,1563557413,28,19.1,37.33,91.93,4.0
327,jacareacanga,20,BR,1563557413,55,-6.22,-57.76,91.4,4.7
328,antalaha,16,MG,1563557414,98,-14.9,50.28,61.69,3.78
329,malvern,75,GB,1563557414,100,52.12,-2.33,66.2,8.05
330,scarborough,99,GB,1563556854,88,54.28,-0.41,66.0,8.05
331,hailar,100,CN,1563557414,97,49.2,119.7,64.75,8.63
332,san cristobal,50,HN,1563557066,39,14.68,-86.92,84.19,10.78
333,oktyabrskoye,20,RU,1563557415,93,56.73,85.44,64.99,2.24
334,coahuayana,84,MX,1563557079,73,18.62,-100.35,82.93,2.26
335,cockburn town,40,TC,1563557027,59,21.46,-71.14,91.4,18.34
336,yeppoon,1,AU,1563557415,66,-23.13,150.74,48.2,4.7
337,kavkazskiy,33,RU,1563557415,53,45.73,39.01,70.15,5.61
338,yatou,75,CM,1563557416,83,3.63,9.81,80.6,5.82
339,divnomorskoye,17,RU,1563557416,60,44.5,38.13,73.39,12.01
340,buin,75,CL,1563557416,48,-33.73,-70.74,66.99,3.36
341,sarnen,50,CH,1563557416,47,46.9,8.25,82.4,5.82
342,paragominas,26,BR,1563557117,48,-3.0,-47.35,87.79,7.25
343,wajid,36,SO,1563557417,46,3.81,43.25,80.41,14.25
344,east london,40,ZA,1563557048,58,-33.02,27.91,57.2,21.92
345,grindavik,40,IS,1563557130,76,63.84,-22.43,60.8,19.46
346,stepnyak,25,KZ,1563557417,68,52.83,70.79,65.29,2.64
347,te anau,93,NZ,1563556765,86,-45.41,167.72,41.53,6.38
348,chara,75,GR,1563557417,42,39.42,22.43,82.4,8.05
349,saint augustine,20,TT,1563557418,59,10.65,-61.4,89.6,16.11
350,formosa,0,BR,1563557418,37,-15.55,-47.33,73.57,9.17
351,nurmahal,29,IN,1563557418,56,31.1,75.6,87.43,2.8
352,moquegua,0,PE,1563557419,15,-17.19,-70.93,73.57,12.37
353,brownsville,40,US,1563557162,56,25.91,-97.49,93.99,19.46
354,isangel,92,VU,1563557069,74,-19.55,169.27,71.41,17.31
355,leshukonskoye,7,RU,1563557419,81,64.9,45.76,52.51,3.22
356,beira,0,ES,1563557420,73,43.2,-8.36,82.0,6.93
357,namatanai,73,PG,1563557119,83,-3.66,152.44,79.33,15.03
358,katherine,53,AU,1563557420,62,-14.47,132.26,57.2,5.82
359,kjopsvik,20,NO,1563557420,40,68.1,16.37,73.4,4.7
360,mehamn,40,NO,1563557110,82,71.03,27.85,59.0,8.05
361,svetlaya,96,RU,1563557420,98,46.54,138.33,59.71,0.6
362,havoysund,0,NO,1563557421,72,71.0,24.66,68.0,16.11
363,aksu,0,KZ,1563557421,60,52.04,76.93,71.6,6.71
364,mbandaka,74,CD,1563557421,72,0.05,18.26,76.09,1.99
365,dauriya,100,RU,1563557422,96,49.93,116.85,64.03,6.17
366,vestmanna,75,FO,1563557422,93,62.16,-7.17,53.6,8.05
367,pulgaon,74,IN,1563557422,69,20.73,78.32,82.39,12.17
368,jember,82,ID,1563557423,94,-8.17,113.7,65.29,4.25
369,wynyard,95,AU,1563557423,94,-40.99,145.73,48.0,3.0
370,puerto quijarro,0,BO,1563557423,37,-19.0,-57.72,84.2,9.17
371,verkhniye sergi,97,RU,1563557423,94,56.65,59.56,66.01,2.28
372,curaca,85,BR,1563557423,51,-8.99,-39.91,78.07,21.0
373,kabalo,2,CD,1563557424,30,-6.05,26.92,79.51,4.81
374,ahipara,0,NZ,1563557056,73,-35.17,173.16,57.73,20.15
375,kahului,40,US,1563557049,74,20.89,-156.47,80.6,18.34
376,santa rosalia,7,MX,1563557424,20,31.87,-112.87,93.0,12.95
377,tommot,19,RU,1563557424,91,58.97,126.27,40.45,3.0
378,barcelos,94,BR,1563557096,93,-0.97,-62.93,80.05,2.77
379,epe,0,DE,1563557425,38,52.18,7.04,79.0,6.93
380,payo,91,ID,1563557425,90,-3.75,103.64,67.63,3.06
381,san policarpo,63,PH,1563557425,90,12.18,125.51,78.25,4.56
382,pangoa,68,PE,1563557426,47,-12.12,-73.0,86.35,2.35
383,altay,30,CN,1563557426,52,47.83,88.13,55.21,6.67
384,hobyo,89,SO,1563557426,63,5.35,48.53,78.25,28.43
385,kamina,0,CD,1563557426,31,-8.74,25.0,67.09,3.76
386,malindi,40,KE,1563556903,83,-3.22,40.12,77.0,9.17
387,hambantota,100,LK,1563557023,74,6.12,81.12,82.57,30.15
388,narsaq,75,GL,1563557427,59,60.91,-46.05,62.6,6.93
389,mariahu,20,IN,1563557427,74,25.6,82.6,87.8,2.24
390,okmulgee,1,US,1563557427,52,35.62,-95.96,93.99,9.17
391,byron bay,40,AU,1563557427,93,-28.65,153.62,48.99,3.69
392,liberal,1,US,1563557427,38,37.04,-100.92,97.0,18.34
393,zhigansk,27,RU,1563557095,69,66.77,123.37,46.57,14.36
394,kalashnikovo,43,RU,1563557428,90,57.28,35.23,58.45,2.89
395,kaili,7,ID,1563557428,85,-3.46,120.21,59.35,4.32
396,wanlaweyn,71,SO,1563557428,71,2.62,44.89,75.55,17.54
397,san quintin,100,PH,1563557067,93,17.54,120.52,74.29,2.95
398,mayo,40,CA,1563557055,67,63.59,-135.9,60.8,2.1
399,sistranda,75,NO,1563557429,87,63.73,8.83,60.01,4.7
400,huilong,100,CN,1563557429,88,31.15,106.5,77.71,1.36
401,gladstone,7,AU,1563557428,76,-23.84,151.26,57.99,5.82
402,bonito,47,BR,1563557401,67,-1.36,-47.3,86.17,6.6
403,petropavlovsk-kamchatskiy,20,RU,1563557090,93,53.05,158.65,59.0,6.71
404,ambilobe,0,MG,1563557066,75,-13.19,49.05,70.33,3.33
405,pathein,100,MM,1563557430,90,16.78,94.73,79.69,4.59
406,talara,0,PE,1563557430,290,-4.58,-81.27,62.6,13.87
407,morgan city,75,US,1563557398,74,29.7,-91.21,95.0,5.82
408,price,1,US,1563557258,13,39.6,-110.81,86.0,5.82
409,bad kissingen,87,DE,1563557431,59,50.2,10.08,73.99,4.0
410,lokosovo,71,RU,1563557431,84,61.13,74.84,68.89,6.06
411,carndonagh,75,IE,1563557431,93,55.25,-7.27,60.8,9.17
412,abalak,94,NE,1563557098,31,15.46,6.28,95.71,12.62
413,pilar,40,AR,1563557432,68,-34.46,-58.91,73.0,3.36
414,russellville,40,US,1563557279,70,35.28,-93.13,91.99,5.82
415,burnie,95,AU,1563557432,94,-41.05,145.91,48.0,3.0
416,serowe,0,BW,1563557432,16,-22.4,26.7,59.17,5.73
417,luanda,0,AO,1563557432,83,-8.83,13.24,73.4,5.82
418,werda,0,BW,1563557433,16,-25.27,23.28,58.27,8.25
419,sola,99,TZ,1563557110,34,-3.17,33.8,77.53,6.06
420,zheshart,55,RU,1563557433,89,62.09,49.59,53.77,4.03
421,luderitz,0,NA,1563557042,83,-26.65,15.16,58.45,31.05
422,farkhor,0,TJ,1563557433,55,37.49,69.4,89.6,2.24
423,grand gaube,75,MU,1563557019,83,-20.01,57.66,71.6,16.11
424,batagay,11,RU,1563557434,86,67.65,134.64,37.75,9.22
425,henties bay,0,NA,1563557434,80,-22.12,14.28,60.01,5.01
426,barda,97,RU,1563557434,93,56.93,55.59,67.99,5.01
427,naduvattam,100,IN,1563557434,98,11.47,76.57,63.85,7.96
428,yarkovo,0,RU,1563557434,93,54.81,82.6,62.6,4.47
429,xam nua,100,LA,1563557435,83,20.42,104.04,70.33,2.82
430,amahai,3,ID,1563557435,91,-3.31,129.0,81.0,1.01
431,roma,20,IT,1563557431,51,41.89,12.48,86.0,4.7
432,hirado,75,JP,1563557435,100,33.32,129.49,82.0,36.91
433,biak,77,ID,1563557436,98,-0.91,122.88,62.23,3.42
434,tiznit,4,MA,1563557436,91,29.7,-9.73,68.53,10.85
435,ipanema,75,BR,1563557436,72,-30.14,-51.22,72.0,4.7
436,atambua,8,ID,1563557437,77,-9.11,124.89,75.91,10.8
437,karpogory,0,RU,1563557437,68,64.0,44.44,59.53,5.82
438,tazovskiy,0,RU,1563557437,65,67.47,78.7,64.75,13.18
439,tautira,20,PF,1563557437,77,-17.73,-149.15,69.8,4.7
440,camacha,75,PT,1563557106,78,33.08,-16.33,75.2,17.22
441,fosses,0,FR,1563557438,37,49.1,2.51,84.2,8.05
442,hounde,100,BF,1563557438,84,11.5,-3.52,76.27,10.07
443,dalby,0,AU,1563557438,63,-27.18,151.26,34.0,1.12
444,sambava,1,MG,1563557065,93,-14.27,50.17,64.75,2.75
445,mtambile,0,TZ,1563557439,74,-5.38,39.7,77.35,13.27
446,herat,0,AF,1563557439,12,34.35,62.22,87.8,5.82
447,hoquiam,1,US,1563557439,55,46.98,-123.89,66.0,9.17
448,viedma,100,AR,1563557439,23,-40.81,-62.99,58.63,19.15
449,florianopolis,75,BR,1563557417,72,-27.6,-48.55,73.0,10.29
450,kumano,90,JP,1563557440,100,34.34,132.59,78.01,3.36
451,tocopilla,39,CL,1563557440,84,-22.09,-70.2,57.73,6.89
452,nouadhibou,0,MR,1563557440,60,20.93,-17.03,75.2,25.28
453,husavik,0,CA,1563557047,39,50.56,-96.99,78.01,11.01
454,salinopolis,4,BR,1563557028,72,-0.61,-47.36,83.11,20.31
455,cocobeach,75,GA,1563557441,88,1.01,9.58,78.8,8.05
456,cerritos,1,US,1563557441,49,33.86,-118.05,75.0,4.7
457,ngunguru,0,NZ,1563557441,95,-35.62,174.5,46.0,3.0
458,paita,0,PE,1563557269,290,-5.09,-81.11,62.6,13.87
459,gashua,87,NG,1563557441,37,12.87,11.04,90.85,7.65
460,coihaique,75,CL,1563556850,80,-45.58,-72.07,42.8,3.36
461,tessalit,98,ML,1563557442,9,20.2,1.01,107.59,18.84
462,los llanos de aridane,20,ES,1563557442,64,28.66,-17.92,75.2,20.8
463,chapadinha,11,BR,1563557442,39,-3.74,-43.35,89.95,5.32
464,iquitos,75,PE,1563556903,78,-3.75,-73.25,82.4,3.36
465,kralendijk,75,BQ,1563557098,70,12.15,-68.27,87.8,20.8
466,puerto del rosario,40,ES,1563557443,57,28.5,-13.86,78.8,19.46
467,labuhan,63,ID,1563557094,85,-2.54,115.51,72.31,1.36
468,wanning,40,AT,1563557443,39,48.64,13.53,80.01,4.7
469,otane,100,NZ,1563557443,94,-39.89,176.62,46.99,2.17
470,saint anthony,1,US,1563556832,38,43.97,-111.68,75.2,18.34
471,tual,35,ID,1563557444,86,-5.67,132.75,76.99,19.62
472,tucson,20,US,1563557223,31,32.22,-110.93,96.01,6.93
473,sept-iles,75,CA,1563557439,43,50.2,-66.38,71.6,11.41
474,nola,59,CF,1563557444,88,3.52,16.05,72.49,2.3
475,rio grande,0,BR,1563557124,60,-32.03,-52.1,71.6,8.05
476,ust-tsilma,100,RU,1563557074,95,65.44,52.15,51.97,3.65
477,lithgow,75,AU,1563557445,93,-33.48,150.16,41.0,1.9
478,lar,40,IR,1563557445,58,27.66,54.32,82.4,20.8
479,tacoronte,75,ES,1563557445,88,28.48,-16.41,72.0,25.28
480,kumluca,33,TR,1563557445,76,36.37,30.29,64.93,2.17
481,langsa,100,ID,1563556793,89,4.47,97.97,68.53,2.68
482,pimentel,24,BR,1563557446,46,-3.7,-45.5,86.89,6.58
483,zhongshu,98,CN,1563557446,95,24.52,103.77,64.03,2.8
484,reggio di calabria,40,IT,1563557446,51,38.11,15.66,84.2,5.82
485,jhajjar,40,IN,1563557446,74,28.61,76.66,89.01,5.82
486,xuddur,34,SO,1563557446,51,4.12,43.89,78.25,14.36
487,arlit,33,NE,1563557447,19,18.74,7.39,101.29,27.29
488,cabedelo,75,BR,1563557447,74,-6.97,-34.84,82.4,17.22
489,pangai,44,TO,1563557447,86,-19.8,-174.35,76.45,15.03
490,lorengau,8,PG,1563557072,83,-2.02,147.27,80.41,10.69
491,jiaocheng,65,CN,1563557447,92,24.68,116.14,75.37,1.12
492,raudeberg,20,NO,1563557014,77,61.99,5.14,68.0,4.7
493,nome,20,US,1563557108,59,30.04,-94.42,93.0,12.75
494,dali,95,CN,1563557448,78,34.79,109.94,74.47,1.83
495,marawi,80,PH,1563557448,90,8.0,124.29,77.0,5.99
496,pangnirtung,90,CA,1563557026,93,66.15,-65.72,53.6,3.36
497,tomigusuku,75,JP,1563557449,83,26.18,127.67,84.2,20.8
498,muisne,40,EC,1563557449,74,0.61,-80.02,86.0,5.82
499,vila velha,20,BR,1563556893,52,-3.71,-38.6,87.8,13.87
500,gamba,16,CN,1563557449,64,28.28,88.52,43.15,4.0
501,ust-omchug,100,RU,1563557450,95,61.13,149.63,52.51,6.49
502,daru,97,PG,1563557450,87,-9.07,143.21,73.03,7.85
503,fuente palmera,0,ES,1563557359,17,37.7,-5.1,104.0,9.17
504,richards bay,0,ZA,1563557115,62,-28.77,32.06,73.93,15.5
505,xai-xai,0,MZ,1563557052,26,-25.04,33.64,70.33,7.63
506,pangody,74,RU,1563557450,60,65.85,74.49,76.27,5.97
507,touros,40,BR,1563557096,78,-5.2,-35.46,80.6,12.75
508,russell,1,US,1563557131,37,38.9,-98.86,100.99,19.46
509,gorey,75,SO,1563557451,59,3.22,43.63,76.09,12.59
510,nacala,96,MZ,1563557451,82,-14.56,40.69,67.09,4.52
511,vitim,91,RU,1563557451,49,59.44,112.57,55.39,14.43
512,kichera,36,RU,1563557451,89,55.93,110.1,55.03,3.98
513,wamba,30,CD,1563557452,83,2.14,27.99,71.59,1.63
514,brae,36,GB,1563557452,72,60.4,-1.35,62.6,12.75
515,vardo,20,US,1563557060,66,39.62,-77.74,95.0,10.29
516,vila do maio,40,CV,1563557452,55,15.13,-23.22,87.8,17.22
517,yenagoa,100,NG,1563557084,92,4.92,6.26,73.93,5.12
518,mogilno,0,PL,1563557452,41,52.66,17.95,78.01,6.93
519,muravlenko,100,RU,1563557453,64,63.79,74.5,75.01,11.03
520,barabinsk,18,RU,1563557453,95,55.35,78.35,62.77,6.22
521,biasca,64,CH,1563557453,65,46.36,8.97,84.2,4.7
522,klaksvik,75,FO,1563557028,93,62.23,-6.59,53.6,8.05
523,bundaberg,0,AU,1563557453,87,-24.87,152.35,50.0,6.93
524,humaita,0,AR,1563557454,46,-24.93,-65.37,71.6,5.82
525,inyonga,22,TZ,1563557454,42,-6.72,32.06,68.35,3.29
526,rundu,0,NA,1563557118,20,-17.91,19.77,62.23,3.67
527,alyangula,3,AU,1563557454,93,-13.85,136.42,60.8,3.36
528,pokhara,74,NP,1563557138,87,28.21,83.99,56.29,1.54
529,san jeronimo,75,PE,1563557455,66,-13.65,-73.37,50.0,12.75
530,champerico,75,MX,1563557455,58,16.38,-93.6,82.4,3.36
531,maine-soroa,97,NE,1563557455,32,13.21,12.02,93.91,8.1
532,saint-pierre,0,FR,1563557455,34,48.95,4.24,82.99,6.93
533,kathu,0,ZA,1563557456,57,-27.7,23.05,54.0,8.39
534,touho,0,NC,1563557456,77,-20.78,165.23,54.67,1.48
535,bukama,0,CD,1563557456,30,-9.2,25.85,70.51,1.83
536,abaran,0,ES,1563557456,38,38.21,-1.4,89.01,17.22
537,kalat,74,PK,1563557457,46,29.03,66.58,69.97,3.65
538,saint-felicien,75,CA,1563557458,61,48.65,-72.45,80.6,12.75
539,nedjo,92,ET,1563557459,97,9.5,35.5,59.53,5.14
540,vazante,0,BR,1563557459,35,-17.99,-46.9,75.01,8.59
541,lewiston,1,US,1563557283,61,44.1,-70.21,88.0,9.17
542,novaya bryan,20,RU,1563557459,68,51.72,108.27,71.6,2.24
543,elat,100,CM,1563557459,97,2.91,11.16,68.35,4.07
544,rawson,78,AR,1563557460,29,-43.3,-65.11,50.89,31.09
